{
    "group_stops": [
        {
            "name": "Dolno\u010derno\u0161ick\u00e1",
            "fullName": "Dolno\u010derno\u0161ick\u00e1",
            "lat": "49.959740",
            "lon": "14.328898",
            "node": "64968",
            "gtfs_node": "4357",
            "lineType": "bus"
        },
        {
            "name": "\u0160kola Lipence",
            "fullName": "\u0160kola Lipence",
            "lat": "49.960682",
            "lon": "14.356225",
            "node": "59311",
            "gtfs_node": "341",
            "lineType": "bus"
        },
        {
            "name": "\u010cerno\u0161ice,Komensk\u00e9ho",
            "fullName": "\u010cerno\u0161ice,Komensk\u00e9ho",
            "lat": "49.961020",
            "lon": "14.323340",
            "node": "49506",
            "gtfs_node": "2367",
            "lineType": "bus"
        },
        {
            "name": "U Kapli\u010dky",
            "fullName": "U Kapli\u010dky",
            "lat": "49.962048",
            "lon": "14.360671",
            "node": "59338",
            "gtfs_node": "777",
            "lineType": "bus"
        },
        {
            "name": "Doln\u00ed \u010cerno\u0161ice",
            "fullName": "Doln\u00ed \u010cerno\u0161ice",
            "lat": "49.962970",
            "lon": "14.332371",
            "node": "64969",
            "gtfs_node": "4287",
            "lineType": "bus"
        },
        {
            "name": "Obchodn\u00ed centrum Lipence",
            "fullName": "Obchodn\u00ed centrum Lipence",
            "lat": "49.963642",
            "lon": "14.363703",
            "node": "68481",
            "gtfs_node": "2714",
            "lineType": "bus"
        },
        {
            "name": "\u017dabov\u0159esky",
            "fullName": "\u017dabov\u0159esky",
            "lat": "49.965126",
            "lon": "14.383626",
            "node": "28036",
            "gtfs_node": "917",
            "lineType": "bus"
        },
        {
            "name": "Pod Kyjovem",
            "fullName": "Pod Kyjovem",
            "lat": "49.965714",
            "lon": "14.369059",
            "node": "59215",
            "gtfs_node": "564",
            "lineType": "bus"
        },
        {
            "name": "Na Pl\u00e1cku",
            "fullName": "Na Pl\u00e1cku",
            "lat": "49.966065",
            "lon": "14.394441",
            "node": "27877",
            "gtfs_node": "421",
            "lineType": "bus"
        },
        {
            "name": "\u010cerno\u0161ice,U Vod\u00e1rny",
            "fullName": "\u010cerno\u0161ice,U Vod\u00e1rny",
            "lat": "49.967026",
            "lon": "14.330013",
            "node": "37011",
            "gtfs_node": "1614",
            "lineType": "bus"
        },
        {
            "name": "S\u00eddli\u0161t\u011b Zbraslav",
            "fullName": "S\u00eddli\u0161t\u011b Zbraslav",
            "lat": "49.968110",
            "lon": "14.384634",
            "node": "47186",
            "gtfs_node": "672",
            "lineType": "bus"
        },
        {
            "name": "U V\u010dely",
            "fullName": "U V\u010dely",
            "lat": "49.968970",
            "lon": "14.388445",
            "node": "47187",
            "gtfs_node": "802",
            "lineType": "bus"
        },
        {
            "name": "Pelun\u011bk",
            "fullName": "Pelun\u011bk",
            "lat": "49.969000",
            "lon": "14.375783",
            "node": "59201",
            "gtfs_node": "537",
            "lineType": "bus"
        },
        {
            "name": "Kostrounek",
            "fullName": "Kostrounek",
            "lat": "49.969357",
            "lon": "14.381944",
            "node": "59074",
            "gtfs_node": "288",
            "lineType": "bus"
        },
        {
            "name": "\u017dabov\u0159esk\u00e1",
            "fullName": "\u017dabov\u0159esk\u00e1",
            "lat": "49.970284",
            "lon": "14.385684",
            "node": "58903",
            "gtfs_node": "802",
            "lineType": "bus"
        },
        {
            "name": "Praha-Zbraslav",
            "fullName": "Praha-Zbraslav",
            "lat": "49.970530",
            "lon": "14.399713",
            "node": "5455536",
            "gtfs_node": "465",
            "lineType": "train"
        },
        {
            "name": "N\u00e1dra\u017e\u00ed Zbraslav",
            "fullName": "N\u00e1dra\u017e\u00ed Zbraslav",
            "lat": "49.972390",
            "lon": "14.399628",
            "node": "55228",
            "gtfs_node": "465",
            "lineType": "bus"
        },
        {
            "name": "Most Z\u00e1vodu m\u00edru",
            "fullName": "Most Z\u00e1vodu m\u00edru",
            "lat": "49.972770",
            "lon": "14.395030",
            "node": "50962",
            "gtfs_node": "392",
            "lineType": "bus"
        },
        {
            "name": "Eli\u0161ky P\u0159emyslovny",
            "fullName": "Eli\u0161ky P\u0159emyslovny",
            "lat": "49.974940",
            "lon": "14.393113",
            "node": "47184",
            "gtfs_node": "814",
            "lineType": "bus"
        },
        {
            "name": "T\u0159ebotov,Pomn\u00edk",
            "fullName": "T\u0159ebotov,Pomn\u00edk",
            "lat": "49.975655",
            "lon": "14.304845",
            "node": "36772",
            "gtfs_node": "1631",
            "lineType": "bus"
        },
        {
            "name": "Zbraslavsk\u00e9 n\u00e1m\u011bst\u00ed",
            "fullName": "Zbraslavsk\u00e9 n\u00e1m\u011bst\u00ed",
            "lat": "49.976147",
            "lon": "14.393577",
            "node": "28034",
            "gtfs_node": "902",
            "lineType": "bus"
        },
        {
            "name": "Z\u00e1vist",
            "fullName": "Z\u00e1vist",
            "lat": "49.976180",
            "lon": "14.401898",
            "node": "55271",
            "gtfs_node": "896",
            "lineType": "bus"
        },
        {
            "name": "Vojetick\u00e1",
            "fullName": "Vojetick\u00e1",
            "lat": "49.976498",
            "lon": "14.348144",
            "node": "66184",
            "gtfs_node": "3224",
            "lineType": "bus"
        },
        {
            "name": "Deht\u00ednsk\u00e1",
            "fullName": "Deht\u00ednsk\u00e1",
            "lat": "49.976650",
            "lon": "14.344787",
            "node": "66183",
            "gtfs_node": "3223",
            "lineType": "bus"
        },
        {
            "name": "Koso\u0159,Rozc.",
            "fullName": "Koso\u0159,Rozcest\u00ed",
            "lat": "49.976975",
            "lon": "14.328545",
            "node": "15446",
            "gtfs_node": "1630",
            "lineType": "bus"
        },
        {
            "name": "N\u00fdrsk\u00e1",
            "fullName": "N\u00fdrsk\u00e1",
            "lat": "49.977303",
            "lon": "14.332507",
            "node": "67311",
            "gtfs_node": "5923",
            "lineType": "bus"
        },
        {
            "name": "Zdick\u00e1",
            "fullName": "Zdick\u00e1",
            "lat": "49.977566",
            "lon": "14.350594",
            "node": "66185",
            "gtfs_node": "3225",
            "lineType": "bus"
        },
        {
            "name": "P\u0159\u00edbramsk\u00e1",
            "fullName": "P\u0159\u00edbramsk\u00e1",
            "lat": "49.977764",
            "lon": "14.346405",
            "node": "66182",
            "gtfs_node": "3222",
            "lineType": "bus"
        },
        {
            "name": "Kolov\u00e1",
            "fullName": "Kolov\u00e1",
            "lat": "49.978275",
            "lon": "14.349879",
            "node": "66180",
            "gtfs_node": "3220",
            "lineType": "bus"
        },
        {
            "name": "Vini\u010dky",
            "fullName": "Vini\u010dky",
            "lat": "49.979256",
            "lon": "14.347851",
            "node": "66181",
            "gtfs_node": "3221",
            "lineType": "bus"
        },
        {
            "name": "Na Vini\u010dk\u00e1ch",
            "fullName": "Na Vini\u010dk\u00e1ch",
            "lat": "49.980045",
            "lon": "14.352182",
            "node": "27982",
            "gtfs_node": "434",
            "lineType": "bus"
        },
        {
            "name": "S\u00eddli\u0161t\u011b Radot\u00edn",
            "fullName": "S\u00eddli\u0161t\u011b Radot\u00edn",
            "lat": "49.980210",
            "lon": "14.353541",
            "node": "50689",
            "gtfs_node": "666",
            "lineType": "bus"
        },
        {
            "name": "Nad Z\u00e1vist\u00ed",
            "fullName": "Nad Z\u00e1vist\u00ed",
            "lat": "49.980520",
            "lon": "14.404201",
            "node": "55225",
            "gtfs_node": "211",
            "lineType": "bus"
        },
        {
            "name": "Zderazsk\u00e1",
            "fullName": "Zderazsk\u00e1",
            "lat": "49.980644",
            "lon": "14.348228",
            "node": "47822",
            "gtfs_node": "1633",
            "lineType": "bus"
        },
        {
            "name": "\u0160kola Radot\u00edn",
            "fullName": "\u0160kola Radot\u00edn",
            "lat": "49.981247",
            "lon": "14.360491",
            "node": "59312",
            "gtfs_node": "1223",
            "lineType": "bus"
        },
        {
            "name": "Ot\u00ednsk\u00e1",
            "fullName": "Ot\u00ednsk\u00e1",
            "lat": "49.982437",
            "lon": "14.355907",
            "node": "27983",
            "gtfs_node": "524",
            "lineType": "bus"
        },
        {
            "name": "N\u00e1dra\u017e\u00ed Radot\u00edn",
            "fullName": "N\u00e1dra\u017e\u00ed Radot\u00edn",
            "lat": "49.984590",
            "lon": "14.363130",
            "node": "27988",
            "gtfs_node": "456",
            "lineType": "bus"
        },
        {
            "name": "Prvom\u00e1jov\u00e1",
            "fullName": "Prvom\u00e1jov\u00e1",
            "lat": "49.985500",
            "lon": "14.357134",
            "node": "27985",
            "gtfs_node": "608",
            "lineType": "bus"
        },
        {
            "name": "Praha-Radot\u00edn",
            "fullName": "Praha-Radot\u00edn",
            "lat": "49.985874",
            "lon": "14.364065",
            "node": "5453256",
            "gtfs_node": "456",
            "lineType": "train"
        },
        {
            "name": "Koso\u0159",
            "fullName": "Koso\u0159",
            "lat": "49.986090",
            "lon": "14.327545",
            "node": "15445",
            "gtfs_node": "1629",
            "lineType": "bus"
        },
        {
            "name": "U Kest\u0159\u00e1nk\u016f",
            "fullName": "U Kest\u0159\u00e1nk\u016f",
            "lat": "49.986935",
            "lon": "14.356814",
            "node": "59340",
            "gtfs_node": "1026",
            "lineType": "bus"
        },
        {
            "name": "Lahovice",
            "fullName": "Lahovice",
            "lat": "49.988148",
            "lon": "14.398203",
            "node": "47121",
            "gtfs_node": "315",
            "lineType": "bus"
        },
        {
            "name": "Ametystov\u00e1",
            "fullName": "Ametystov\u00e1",
            "lat": "49.988200",
            "lon": "14.362217",
            "node": "58937",
            "gtfs_node": "1274",
            "lineType": "bus"
        },
        {
            "name": "U Jankovky",
            "fullName": "U Jankovky",
            "lat": "49.988205",
            "lon": "14.367934",
            "node": "47399",
            "gtfs_node": "746",
            "lineType": "bus"
        },
        {
            "name": "Pod \u0158\u00edh\u00e1kem",
            "fullName": "Pod \u0158\u00edh\u00e1kem",
            "lat": "49.989033",
            "lon": "14.362034",
            "node": "59221",
            "gtfs_node": "998",
            "lineType": "bus"
        },
        {
            "name": "Saf\u00edrov\u00e1",
            "fullName": "Saf\u00edrov\u00e1",
            "lat": "49.989777",
            "lon": "14.350359",
            "node": "47148",
            "gtfs_node": "637",
            "lineType": "bus"
        },
        {
            "name": "Vr\u00e1\u017esk\u00e1",
            "fullName": "Vr\u00e1\u017esk\u00e1",
            "lat": "49.989964",
            "lon": "14.370008",
            "node": "55264",
            "gtfs_node": "1042",
            "lineType": "bus"
        },
        {
            "name": "\u017divcov\u00e1",
            "fullName": "\u017divcov\u00e1",
            "lat": "49.990800",
            "lon": "14.368361",
            "node": "59419",
            "gtfs_node": "1017",
            "lineType": "bus"
        },
        {
            "name": "Praha-Komo\u0159any",
            "fullName": "Praha-Komo\u0159any",
            "lat": "49.990955",
            "lon": "14.404417",
            "node": "5455526",
            "gtfs_node": "280",
            "lineType": "train"
        },
        {
            "name": "Pod Lahovskou",
            "fullName": "Pod Lahovskou",
            "lat": "49.991455",
            "lon": "14.365620",
            "node": "67708",
            "gtfs_node": "1002",
            "lineType": "bus"
        },
        {
            "name": "Pl\u00e1nick\u00e1",
            "fullName": "Pl\u00e1nick\u00e1",
            "lat": "49.992046",
            "lon": "14.365441",
            "node": "59206",
            "gtfs_node": "1181",
            "lineType": "bus"
        },
        {
            "name": "V Sudech",
            "fullName": "V Sudech",
            "lat": "49.992240",
            "lon": "14.345995",
            "node": "27987",
            "gtfs_node": "830",
            "lineType": "bus"
        },
        {
            "name": "P\u0159e\u0161t\u00ednsk\u00e1",
            "fullName": "P\u0159e\u0161t\u00ednsk\u00e1",
            "lat": "49.993733",
            "lon": "14.376312",
            "node": "55241",
            "gtfs_node": "600",
            "lineType": "bus"
        },
        {
            "name": "Cement\u00e1rna Radot\u00edn",
            "fullName": "Cement\u00e1rna Radot\u00edn",
            "lat": "49.994095",
            "lon": "14.342561",
            "node": "51402",
            "gtfs_node": "57",
            "lineType": "bus"
        },
        {
            "name": "P\u0159\u00edstav Radot\u00edn",
            "fullName": "P\u0159\u00edstav Radot\u00edn",
            "lat": "49.994415",
            "lon": "14.393490",
            "node": "55242",
            "gtfs_node": "1043",
            "lineType": "bus"
        },
        {
            "name": "Lahovick\u00fd most",
            "fullName": "Lahovick\u00fd most",
            "lat": "49.995434",
            "lon": "14.398083",
            "node": "55213",
            "gtfs_node": "316",
            "lineType": "bus"
        },
        {
            "name": "Soln\u00e1",
            "fullName": "Soln\u00e1",
            "lat": "49.996555",
            "lon": "14.366285",
            "node": "59288",
            "gtfs_node": "1184",
            "lineType": "bus"
        },
        {
            "name": "U Lom\u016f",
            "fullName": "U Lom\u016f",
            "lat": "49.996952",
            "lon": "14.338987",
            "node": "59343",
            "gtfs_node": "785",
            "lineType": "bus"
        },
        {
            "name": "Cik\u00e1nka",
            "fullName": "Cik\u00e1nka",
            "lat": "49.997450",
            "lon": "14.322625",
            "node": "58971",
            "gtfs_node": "59",
            "lineType": "bus"
        },
        {
            "name": "K Cik\u00e1nce",
            "fullName": "K Cik\u00e1nce",
            "lat": "49.997627",
            "lon": "14.341734",
            "node": "51401",
            "gtfs_node": "214",
            "lineType": "bus"
        },
        {
            "name": "Lahovsk\u00e1",
            "fullName": "Lahovsk\u00e1",
            "lat": "49.998276",
            "lon": "14.367030",
            "node": "59092",
            "gtfs_node": "1182",
            "lineType": "bus"
        },
        {
            "name": "Lomy",
            "fullName": "Lomy",
            "lat": "49.998276",
            "lon": "14.329468",
            "node": "59101",
            "gtfs_node": "941",
            "lineType": "bus"
        },
        {
            "name": "Ma\u0161k\u016fv ml\u00fdn",
            "fullName": "Ma\u0161k\u016fv ml\u00fdn",
            "lat": "49.998880",
            "lon": "14.318501",
            "node": "59109",
            "gtfs_node": "380",
            "lineType": "bus"
        },
        {
            "name": "Cukrovar Mod\u0159any",
            "fullName": "Cukrovar Mod\u0159any",
            "lat": "49.999060",
            "lon": "14.406416",
            "node": "55181",
            "gtfs_node": "62",
            "lineType": "bus"
        },
        {
            "name": "Lahovi\u010dky",
            "fullName": "Lahovi\u010dky",
            "lat": "50.000176",
            "lon": "14.395802",
            "node": "27954",
            "gtfs_node": "317",
            "lineType": "bus"
        },
        {
            "name": "Pod Lochkovem",
            "fullName": "Pod Lochkovem",
            "lat": "50.002830",
            "lon": "14.350538",
            "node": "52083",
            "gtfs_node": "1297",
            "lineType": "bus"
        },
        {
            "name": "Lochkov",
            "fullName": "Lochkov",
            "lat": "50.002983",
            "lon": "14.352734",
            "node": "51400",
            "gtfs_node": "347",
            "lineType": "bus"
        },
        {
            "name": "Zahradnictv\u00ed",
            "fullName": "Zahradnictv\u00ed",
            "lat": "50.003162",
            "lon": "14.384061",
            "node": "28024",
            "gtfs_node": "891",
            "lineType": "bus"
        },
        {
            "name": "Praha-Mod\u0159any zast.",
            "fullName": "Praha-Mod\u0159any zast\u00e1vka",
            "lat": "50.003940",
            "lon": "14.403092",
            "node": "5457386",
            "gtfs_node": "388",
            "lineType": "train"
        },
        {
            "name": "N\u00e1dra\u017e\u00ed Mod\u0159any",
            "fullName": "N\u00e1dra\u017e\u00ed Mod\u0159any",
            "lat": "50.004177",
            "lon": "14.403520",
            "node": "47132",
            "gtfs_node": "388",
            "lineType": "tram"
        },
        {
            "name": "Obchodn\u00ed n\u00e1m\u011bst\u00ed",
            "fullName": "Obchodn\u00ed n\u00e1m\u011bst\u00ed",
            "lat": "50.004772",
            "lon": "14.404660",
            "node": "55233",
            "gtfs_node": "1158",
            "lineType": "bus"
        },
        {
            "name": "Na Hv\u011bzd\u00e1rn\u011b",
            "fullName": "Na Hv\u011bzd\u00e1rn\u011b",
            "lat": "50.004997",
            "lon": "14.375214",
            "node": "59126",
            "gtfs_node": "3203",
            "lineType": "bus"
        },
        {
            "name": "Za Chalupami",
            "fullName": "Za Chalupami",
            "lat": "50.005264",
            "lon": "14.356125",
            "node": "51399",
            "gtfs_node": "885",
            "lineType": "bus"
        },
        {
            "name": "Zadn\u00ed Kopanina",
            "fullName": "Zadn\u00ed Kopanina",
            "lat": "50.006626",
            "lon": "14.312903",
            "node": "59398",
            "gtfs_node": "888",
            "lineType": "bus"
        },
        {
            "name": "Mrkosova",
            "fullName": "Mrkosova",
            "lat": "50.007210",
            "lon": "14.380890",
            "node": "62371",
            "gtfs_node": "3202",
            "lineType": "bus"
        },
        {
            "name": "Z\u00e1vodi\u0161t\u011b Chuchle",
            "fullName": "Z\u00e1vodi\u0161t\u011b Chuchle",
            "lat": "50.007590",
            "lon": "14.388886",
            "node": "59405",
            "gtfs_node": "705",
            "lineType": "bus"
        },
        {
            "name": "Leh\u00e1rova",
            "fullName": "Leh\u00e1rova",
            "lat": "50.008880",
            "lon": "14.405748",
            "node": "55214",
            "gtfs_node": "17",
            "lineType": "bus"
        },
        {
            "name": "Mod\u0159ansk\u00e1 \u0161kola",
            "fullName": "Mod\u0159ansk\u00e1 \u0161kola",
            "lat": "50.009068",
            "lon": "14.403147",
            "node": "43729",
            "gtfs_node": "76",
            "lineType": "tram"
        },
        {
            "name": "Novochuchelsk\u00e1",
            "fullName": "Novochuchelsk\u00e1",
            "lat": "50.009087",
            "lon": "14.384808",
            "node": "62370",
            "gtfs_node": "3201",
            "lineType": "bus"
        },
        {
            "name": "Fran\u010d\u00edkova",
            "fullName": "Fran\u010d\u00edkova",
            "lat": "50.010590",
            "lon": "14.356875",
            "node": "51398",
            "gtfs_node": "120",
            "lineType": "bus"
        },
        {
            "name": "Praha-Velk\u00e1 Chuchle",
            "fullName": "Praha-Velk\u00e1 Chuchle",
            "lat": "50.011340",
            "lon": "14.388897",
            "node": "5457396",
            "gtfs_node": "976",
            "lineType": "train"
        },
        {
            "name": "N\u00e1dra\u017e\u00ed Velk\u00e1 Chuchle",
            "fullName": "N\u00e1dra\u017e\u00ed Velk\u00e1 Chuchle",
            "lat": "50.011425",
            "lon": "14.389142",
            "node": "67777",
            "gtfs_node": "976",
            "lineType": "bus"
        },
        {
            "name": "Starochuchelsk\u00e1",
            "fullName": "Starochuchelsk\u00e1",
            "lat": "50.011450",
            "lon": "14.385867",
            "node": "59297",
            "gtfs_node": "702",
            "lineType": "bus"
        },
        {
            "name": "Kaz\u00ednsk\u00e1",
            "fullName": "Kaz\u00ednsk\u00e1",
            "lat": "50.011665",
            "lon": "14.386353",
            "node": "59053",
            "gtfs_node": "1021",
            "lineType": "bus"
        },
        {
            "name": "Zmrzl\u00edk",
            "fullName": "Zmrzl\u00edk",
            "lat": "50.011776",
            "lon": "14.312866",
            "node": "59415",
            "gtfs_node": "915",
            "lineType": "bus"
        },
        {
            "name": "\u0160kola Velk\u00e1 Chuchle",
            "fullName": "\u0160kola Velk\u00e1 Chuchle",
            "lat": "50.012016",
            "lon": "14.382333",
            "node": "59313",
            "gtfs_node": "2574",
            "lineType": "bus"
        },
        {
            "name": "Velk\u00e1 Chuchle",
            "fullName": "Velk\u00e1 Chuchle",
            "lat": "50.012150",
            "lon": "14.380734",
            "node": "59372",
            "gtfs_node": "479",
            "lineType": "bus"
        }
    ]
}